{
  "type": "FeatureCollection",
  "features": [
    {
      "id": "seattle",
      "type": "Feature",
      "properties": {
        "title": "Seattle",
        "background": "seattle.jpg",
        "zoom": 13
      },
      "geometry": {
        "type": "Point",
        "coordinates": [
          -122.336014,
          47.604432
        ]
      }
    },
    {
      "id": "charlotte",
      "type": "Feature",
      "properties": {
        "title": "Charlotte",
        "background": "charlotte.jpg",
        "zoom": 13
      },
      "geometry": {
        "type": "Point",
        "coordinates": [
          -80.8388393,
          35.2261539
        ]
      }
    },
    {
      "id": "lexington",
      "type": "Feature",
      "properties": {
        "title": "Lexington",
        "background": "lexington.png",
        "zoom": 13
      },
      "geometry": {
        "type": "Point",
        "coordinates": [
          -84.498344,
          38.048610
        ]
      }
    },
    {
      "id": "new-york",
      "type": "Feature",
      "properties": {
        "title": "New York",
        "background": "new-york.jpg",
        "zoom": 11
      },
      "geometry": {
        "type": "Point",
        "coordinates": [
          -74.0059,
          40.7127
        ]
      }
    },
    {
      "id": "san-francisco",
      "type": "Feature",
      "properties": {
        "title": "San Francisco",
        "background": "san-francisco.jpg",
        "zoom": 11
      },
      "geometry": {
        "type": "Point",
        "coordinates": [
          -122.4194155,
          37.7749295
        ]
      }
    },
        {
      "id": "triangle",
      "type": "Feature",
      "properties": {
        "title": "Triangle Region NC",
        "background": "triangle.jpg",
        "zoom": 11
      },
      "geometry": {
        "type": "Point",
        "coordinates": [
          -78.7879963,
          35.880079
        ]
      }
    },
        {
      "id": "tulsa",
      "type": "Feature",
      "properties": {
        "title": "Tulsa OK",
        "background": "tulsa.jpg",
        "zoom": 11
      },
      "geometry": {
        "type": "Point",
        "coordinates": [
            -95.991433,
            36.156718
        
        ]
      }
    },
    {
      "id": "austin",
      "type": "Feature",
      "properties": {
        "title": "Austin",
        "background": "austin.jpg",
        "zoom": 11
      },
      "geometry": {
        "type": "Point",
        "coordinates": [
          -97.746683,
          30.265108
        ]
      }
    }
	

  ]
}
