{
  "type": "FeatureCollection",
  "features": [
    {
      "id": "charlotte",
      "type": "Feature",
      "properties": {
        "title": "Charlotte",
        "background": "charlotte.jpg",
        "zoom": 13
      },
      "geometry": {
        "type": "Point",
        "coordinates": [
          -80.8388393,
          35.2261539
        ]
      }
    },
    {
      "id": "lexington",
      "type": "Feature",
      "properties": {
        "title": "Lexington",
        "background": "lexington.png",
        "zoom": 13
      },
      "geometry": {
        "type": "Point",
        "coordinates": [
          -84.498344,
          38.048610
        ]
      }
    },
    {
      "id": "new-york",
      "type": "Feature",
      "properties": {
        "title": "New York",
        "background": "new-york.png",
        "zoom": 11
      },
      "geometry": {
        "type": "Point",
        "coordinates": [
          -74.0059,
          40.7127
        ]
      }
    },
    {
      "id": "orlando",
      "type": "Feature",
      "properties": {
        "title": "Orlando",
        "background": "orlando.jpg",
        "zoom": 10
      },
      "geometry": {
        "type": "Point",
        "coordinates": [
          -81.377430,
          28.542858
        ]
      }
    },
    {
      "id": "san-francisco",
      "type": "Feature",
      "properties": {
        "title": "San Francisco",
        "background": "san-francisco.jpg",
        "zoom": 11
      },
      "geometry": {
        "type": "Point",
        "coordinates": [
          -122.4194155,
          37.7749295
        ]
      }
    },
    {
      "id": "seattle",
      "type": "Feature",
      "properties": {
        "title": "Seattle",
        "background": "seattle.jpg",
        "zoom": 13
      },
      "geometry": {
        "type": "Point",
        "coordinates": [
          -122.336014,
          47.604432
        ]
      }
    }
  ]
}
